{
  "Stations": [
    {
      "Address": {
        "Zip": "20005",
        "State": "DC",
        "City": "Washington",
        "Street": "607 13th St. NW"
      },
      "Lon": -77.028099,
      "Lat": 38.898303,
      "Code": "A01",
      "Name": "Metro Center",
      "StationTogether1": "C01",
      "StationTogether2": "",
      "LineCode1": "RD",
      "LineCode2": null,
      "LineCode3": null,
      "LineCode4": null
    },
    {
      "Address": {
        "Zip": "20036",
        "State": "DC",
        "City": "Washington",
        "Street": "1001 Connecticut Avenue NW"
      },
      "Lon": -77.039766,
      "Lat": 38.903192,
      "Code": "A02",
      "Name": "Farragut North",
      "StationTogether1": "",
      "StationTogether2": "",
      "LineCode1": "RD",
      "LineCode2": null,
      "LineCode3": null,
      "LineCode4": null
    },
    {
      "Address": {
        "Zip": "20036",
        "State": "DC",
        "City": "Washington",
        "Street": "1525 20th St. NW"
      },
      "Lon": -77.04362,
      "Lat": 38.909499,
      "Code": "A03",
      "Name": "Dupont Circle",
      "StationTogether1": "",
      "StationTogether2": "",
      "LineCode1": "RD",
      "LineCode2": null,
      "LineCode3": null,
      "LineCode4": null
    },
    {
      "Address": {
        "Zip": "20008",
        "State": "DC",
        "City": "Washington",
        "Street": "2700 Connecticut Ave., NW"
      },
      "Lon": -77.052648,
      "Lat": 38.924999,
      "Code": "A04",
      "Name": "Woodley Park-Zoo/Adams Morgan",
      "StationTogether1": "",
      "StationTogether2": "",
      "LineCode1": "RD",
      "LineCode2": null,
      "LineCode3": null,
      "LineCode4": null
    },
    {
      "Address": {
        "Zip": "20008",
        "State": "DC",
        "City": "Washington",
        "Street": "3599 Connecticut Avenue NW"
      },
      "Lon": -77.058226,
      "Lat": 38.934703,
      "Code": "A05",
      "Name": "Cleveland Park",
      "StationTogether1": "",
      "StationTogether2": "",
      "LineCode1": "RD",
      "LineCode2": null,
      "LineCode3": null,
      "LineCode4": null
    },
    {
      "Address": {
        "Zip": "20008",
        "State": "DC",
        "City": "Washington",
        "Street": "4200 Connecticut Avenue NW"
      },
      "Lon": -77.063511,
      "Lat": 38.94362,
      "Code": "A06",
      "Name": "Van Ness-UDC",
      "StationTogether1": "",
      "StationTogether2": "",
      "LineCode1": "RD",
      "LineCode2": null,
      "LineCode3": null,
      "LineCode4": null
    },
    {
      "Address": {
        "Zip": "20016",
        "State": "DC",
        "City": "Washington",
        "Street": "4501 Wisconsin Avenue NW"
      },
      "Lon": -77.079615,
      "Lat": 38.947808,
      "Code": "A07",
      "Name": "Tenleytown-AU",
      "StationTogether1": "",
      "StationTogether2": "",
      "LineCode1": "RD",
      "LineCode2": null,
      "LineCode3": null,
      "LineCode4": null
    },
    {
      "Address": {
        "Zip": "20015",
        "State": "DC",
        "City": "Washington",
        "Street": "5337 Wisconsin Avenue NW"
      },
      "Lon": -77.085969,
      "Lat": 38.960744,
      "Code": "A08",
      "Name": "Friendship Heights",
      "StationTogether1": "",
      "StationTogether2": "",
      "LineCode1": "RD",
      "LineCode2": null,
      "LineCode3": null,
      "LineCode4": null
    },
    {
      "Address": {
        "Zip": "20814",
        "State": "MD",
        "City": "Bethesda",
        "Street": "7450 Wisconsin Avenue"
      },
      "Lon": -77.094431,
      "Lat": 38.984282,
      "Code": "A09",
      "Name": "Bethesda",
      "StationTogether1": "",
      "StationTogether2": "",
      "LineCode1": "RD",
      "LineCode2": null,
      "LineCode3": null,
      "LineCode4": null
    },
    {
      "Address": {
        "Zip": "20814",
        "State": "MD",
        "City": "Bethesda",
        "Street": "8810 Rockville Pike"
      },
      "Lon": -77.097253,
      "Lat": 38.999947,
      "Code": "A10",
      "Name": "Medical Center",
      "StationTogether1": "",
      "StationTogether2": "",
      "LineCode1": "RD",
      "LineCode2": null,
      "LineCode3": null,
      "LineCode4": null
    },
    {
      "Address": {
        "Zip": "20852",
        "State": "MD",
        "City": "Bethesda",
        "Street": "10300 Rockville Pike"
      },
      "Lon": -77.10415,
      "Lat": 39.029158,
      "Code": "A11",
      "Name": "Grosvenor-Strathmore",
      "StationTogether1": "",
      "StationTogether2": "",
      "LineCode1": "RD",
      "LineCode2": null,
      "LineCode3": null,
      "LineCode4": null
    },
    {
      "Address": {
        "Zip": "20852",
        "State": "MD",
        "City": "Rockville",
        "Street": "5500 Marinelli Road"
      },
      "Lon": -77.113131,
      "Lat": 39.048043,
      "Code": "A12",
      "Name": "White Flint",
      "StationTogether1": "",
      "StationTogether2": "",
      "LineCode1": "RD",
      "LineCode2": null,
      "LineCode3": null,
      "LineCode4": null
    },
    {
      "Address": {
        "Zip": "20852",
        "State": "MD",
        "City": "Rockville",
        "Street": "1600 Chapman Avenue"
      },
      "Lon": -77.121113,
      "Lat": 39.062359,
      "Code": "A13",
      "Name": "Twinbrook",
      "StationTogether1": "",
      "StationTogether2": "",
      "LineCode1": "RD",
      "LineCode2": null,
      "LineCode3": null,
      "LineCode4": null
    },
    {
      "Address": {
        "Zip": "20850",
        "State": "MD",
        "City": "Rockville",
        "Street": "251 Hungerford Drive"
      },
      "Lon": -77.146424,
      "Lat": 39.084215,
      "Code": "A14",
      "Name": "Rockville",
      "StationTogether1": "",
      "StationTogether2": "",
      "LineCode1": "RD",
      "LineCode2": null,
      "LineCode3": null,
      "LineCode4": null
    },
    {
      "Address": {
        "Zip": "20855",
        "State": "MD",
        "City": "Rockville",
        "Street": "15903 Somerville Drive"
      },
      "Lon": -77.164921,
      "Lat": 39.119819,
      "Code": "A15",
      "Name": "Shady Grove",
      "StationTogether1": "",
      "StationTogether2": "",
      "LineCode1": "RD",
      "LineCode2": null,
      "LineCode3": null,
      "LineCode4": null
    },
    {
      "Address": {
        "Zip": "20001",
        "State": "DC",
        "City": "Washington",
        "Street": "630 H St. NW"
      },
      "Lon": -77.021851,
      "Lat": 38.89834,
      "Code": "B01",
      "Name": "Gallery Pl-Chinatown",
      "StationTogether1": "F01",
      "StationTogether2": "",
      "LineCode1": "RD",
      "LineCode2": null,
      "LineCode3": null,
      "LineCode4": null
    },
    {
      "Address": {
        "Zip": "20001",
        "State": "DC",
        "City": "Washington",
        "Street": "450 F Street NW"
      },
      "Lon": -77.016643,
      "Lat": 38.896084,
      "Code": "B02",
      "Name": "Judiciary Square",
      "StationTogether1": "",
      "StationTogether2": "",
      "LineCode1": "RD",
      "LineCode2": null,
      "LineCode3": null,
      "LineCode4": null
    },
    {
      "Address": {
        "Zip": "20002",
        "State": "DC",
        "City": "Washington",
        "Street": "701 First St. NE"
      },
      "Lon": -77.006745,
      "Lat": 38.897723,
      "Code": "B03",
      "Name": "Union Station",
      "StationTogether1": "",
      "StationTogether2": "",
      "LineCode1": "RD",
      "LineCode2": null,
      "LineCode3": null,
      "LineCode4": null
    },
    {
      "Address": {
        "Zip": "20018",
        "State": "DC",
        "City": "Washington",
        "Street": "919 Rhode Island Avenue NE"
      },
      "Lon": -76.995984,
      "Lat": 38.920741,
      "Code": "B04",
      "Name": "Rhode Island Ave-Brentwood",
      "StationTogether1": "",
      "StationTogether2": "",
      "LineCode1": "RD",
      "LineCode2": null,
      "LineCode3": null,
      "LineCode4": null
    },
    {
      "Address": {
        "Zip": "20017",
        "State": "DC",
        "City": "Washington",
        "Street": "801 Michigan Avenue NE"
      },
      "Lon": -76.994544,
      "Lat": 38.933234,
      "Code": "B05",
      "Name": "Brookland-CUA",
      "StationTogether1": "",
      "StationTogether2": "",
      "LineCode1": "RD",
      "LineCode2": null,
      "LineCode3": null,
      "LineCode4": null
    },
    {
      "Address": {
        "Zip": "20011",
        "State": "DC",
        "City": "Washington",
        "Street": "550 Galloway Street NE"
      },
      "Lon": -77.002174,
      "Lat": 38.951777,
      "Code": "B06",
      "Name": "Fort Totten",
      "StationTogether1": "E06",
      "StationTogether2": "",
      "LineCode1": "RD",
      "LineCode2": null,
      "LineCode3": null,
      "LineCode4": null
    },
    {
      "Address": {
        "Zip": "20012",
        "State": "DC",
        "City": "Washington",
        "Street": "327 Cedar Street NW"
      },
      "Lon": -77.017834,
      "Lat": 38.975532,
      "Code": "B07",
      "Name": "Takoma",
      "StationTogether1": "",
      "StationTogether2": "",
      "LineCode1": "RD",
      "LineCode2": null,
      "LineCode3": null,
      "LineCode4": null
    },
    {
      "Address": {
        "Zip": "20910",
        "State": "MD",
        "City": "Silver Spring",
        "Street": "8400 Colesville Road"
      },
      "Lon": -77.031321,
      "Lat": 38.993841,
      "Code": "B08",
      "Name": "Silver Spring",
      "StationTogether1": "",
      "StationTogether2": "",
      "LineCode1": "RD",
      "LineCode2": null,
      "LineCode3": null,
      "LineCode4": null
    },
    {
      "Address": {
        "Zip": "20910",
        "State": "MD",
        "City": "Forest Glen",
        "Street": "9730 Georgia Avenue"
      },
      "Lon": -77.042953,
      "Lat": 39.015413,
      "Code": "B09",
      "Name": "Forest Glen",
      "StationTogether1": "",
      "StationTogether2": "",
      "LineCode1": "RD",
      "LineCode2": null,
      "LineCode3": null,
      "LineCode4": null
    },
    {
      "Address": {
        "Zip": "20902",
        "State": "MD",
        "City": "Silver Spring",
        "Street": "11171 Georgia Avenue"
      },
      "Lon": -77.051098,
      "Lat": 39.038558,
      "Code": "B10",
      "Name": "Wheaton",
      "StationTogether1": "",
      "StationTogether2": "",
      "LineCode1": "RD",
      "LineCode2": null,
      "LineCode3": null,
      "LineCode4": null
    },
    {
      "Address": {
        "Zip": "20906",
        "State": "MD",
        "City": "Silver Spring",
        "Street": "12501 Georgia Avenue"
      },
      "Lon": -77.05341,
      "Lat": 39.061713,
      "Code": "B11",
      "Name": "Glenmont",
      "StationTogether1": "",
      "StationTogether2": "",
      "LineCode1": "RD",
      "LineCode2": null,
      "LineCode3": null,
      "LineCode4": null
    },
    {
      "Address": {
        "Zip": "20002",
        "State": "DC",
        "City": "Washington",
        "Street": "200 Florida Ave N.E."
      },
      "Lon": -77.002961,
      "Lat": 38.907407,
      "Code": "B35",
      "Name": "NoMa-Gallaudet U",
      "StationTogether1": "",
      "StationTogether2": "",
      "LineCode1": "RD",
      "LineCode2": null,
      "LineCode3": null,
      "LineCode4": null
    },
    {
      "Address": {
        "Zip": "20005",
        "State": "DC",
        "City": "Washington",
        "Street": "607 13th St. NW"
      },
      "Lon": -77.028099,
      "Lat": 38.898303,
      "Code": "C01",
      "Name": "Metro Center",
      "StationTogether1": "A01",
      "StationTogether2": "",
      "LineCode1": "BL",
      "LineCode2": "OR",
      "LineCode3": "SV",
      "LineCode4": null
    },
    {
      "Address": {
        "Zip": "20005",
        "State": "DC",
        "City": "Washington",
        "Street": "1400 I St. NW"
      },
      "Lon": -77.033652,
      "Lat": 38.901316,
      "Code": "C02",
      "Name": "McPherson Square",
      "StationTogether1": "",
      "StationTogether2": "",
      "LineCode1": "BL",
      "LineCode2": "OR",
      "LineCode3": "SV",
      "LineCode4": null
    },
    {
      "Address": {
        "Zip": "20006",
        "State": "DC",
        "City": "Washington",
        "Street": "900 18th St. NW"
      },
      "Lon": -77.03981,
      "Lat": 38.901311,
      "Code": "C03",
      "Name": "Farragut West",
      "StationTogether1": "",
      "StationTogether2": "",
      "LineCode1": "BL",
      "LineCode2": "OR",
      "LineCode3": "SV",
      "LineCode4": null
    },
    {
      "Address": {
        "Zip": "20037",
        "State": "DC",
        "City": "Washington",
        "Street": "2301 I St. NW"
      },
      "Lon": -77.050273,
      "Lat": 38.900599,
      "Code": "C04",
      "Name": "Foggy Bottom-GWU",
      "StationTogether1": "",
      "StationTogether2": "",
      "LineCode1": "BL",
      "LineCode2": "OR",
      "LineCode3": "SV",
      "LineCode4": null
    },
    {
      "Address": {
        "Zip": "22209",
        "State": "VA",
        "City": "Arlington",
        "Street": "1850 N. Moore Street"
      },
      "Lon": -77.07146,
      "Lat": 38.896595,
      "Code": "C05",
      "Name": "Rosslyn",
      "StationTogether1": "",
      "StationTogether2": "",
      "LineCode1": "BL",
      "LineCode2": "OR",
      "LineCode3": "SV",
      "LineCode4": null
    },
    {
      "Address": {
        "Zip": "22211",
        "State": "VA",
        "City": "Arlington",
        "Street": "1000 North Memorial Drive"
      },
      "Lon": -77.063108,
      "Lat": 38.884574,
      "Code": "C06",
      "Name": "Arlington Cemetery",
      "StationTogether1": "",
      "StationTogether2": "",
      "LineCode1": "BL",
      "LineCode2": null,
      "LineCode3": null,
      "LineCode4": null
    },
    {
      "Address": {
        "Zip": "22202",
        "State": "VA",
        "City": "Arlington",
        "Street": "2 South Rotary Road"
      },
      "Lon": -77.054013,
      "Lat": 38.869349,
      "Code": "C07",
      "Name": "Pentagon",
      "StationTogether1": "",
      "StationTogether2": "",
      "LineCode1": "BL",
      "LineCode2": "YL",
      "LineCode3": null,
      "LineCode4": null
    },
    {
      "Address": {
        "Zip": "22202",
        "State": "VA",
        "City": "Arlington",
        "Street": "1250 South Hayes St."
      },
      "Lon": -77.059507,
      "Lat": 38.863045,
      "Code": "C08",
      "Name": "Pentagon City",
      "StationTogether1": "",
      "StationTogether2": "",
      "LineCode1": "BL",
      "LineCode2": "YL",
      "LineCode3": null,
      "LineCode4": null
    },
    {
      "Address": {
        "Zip": "22202",
        "State": "VA",
        "City": "Arlington",
        "Street": "1750 South Clark St."
      },
      "Lon": -77.050589,
      "Lat": 38.85779,
      "Code": "C09",
      "Name": "Crystal City",
      "StationTogether1": "",
      "StationTogether2": "",
      "LineCode1": "BL",
      "LineCode2": "YL",
      "LineCode3": null,
      "LineCode4": null
    },
    {
      "Address": {
        "Zip": "22202",
        "State": "VA",
        "City": "Arlington",
        "Street": "2400 S. Smith Blvd."
      },
      "Lon": -77.043805,
      "Lat": 38.852985,
      "Code": "C10",
      "Name": "Ronald Reagan Washington National Airport",
      "StationTogether1": "",
      "StationTogether2": "",
      "LineCode1": "BL",
      "LineCode2": "YL",
      "LineCode3": null,
      "LineCode4": null
    },
    {
      "Address": {
        "Zip": "22301",
        "State": "VA",
        "City": "Alexandria",
        "Street": "700 N. West St."
      },
      "Lon": -77.053763,
      "Lat": 38.814009,
      "Code": "C12",
      "Name": "Braddock Road",
      "StationTogether1": "",
      "StationTogether2": "",
      "LineCode1": "BL",
      "LineCode2": "YL",
      "LineCode3": null,
      "LineCode4": null
    },
    {
      "Address": {
        "Zip": "22301",
        "State": "VA",
        "City": "Alexandria",
        "Street": "1900 King Street"
      },
      "Lon": -77.061115,
      "Lat": 38.806474,
      "Code": "C13",
      "Name": "King St-Old Town",
      "StationTogether1": "",
      "StationTogether2": "",
      "LineCode1": "BL",
      "LineCode2": "YL",
      "LineCode3": null,
      "LineCode4": null
    },
    {
      "Address": {
        "Zip": "22314",
        "State": "VA",
        "City": "Alexandria",
        "Street": "2400 Eisenhower Avenue"
      },
      "Lon": -77.071173,
      "Lat": 38.800313,
      "Code": "C14",
      "Name": "Eisenhower Avenue",
      "StationTogether1": "",
      "StationTogether2": "",
      "LineCode1": "YL",
      "LineCode2": null,
      "LineCode3": null,
      "LineCode4": null
    },
    {
      "Address": {
        "Zip": "22303",
        "State": "VA",
        "City": "Huntington",
        "Street": "2501 Huntington Ave"
      },
      "Lon": -77.075301,
      "Lat": 38.793841,
      "Code": "C15",
      "Name": "Huntington",
      "StationTogether1": "",
      "StationTogether2": "",
      "LineCode1": "YL",
      "LineCode2": null,
      "LineCode3": null,
      "LineCode4": null
    },
    {
      "Address": {
        "Zip": "20004",
        "State": "DC",
        "City": "Washington",
        "Street": "302 12th St. NW"
      },
      "Lon": -77.028218,
      "Lat": 38.893757,
      "Code": "D01",
      "Name": "Federal Triangle",
      "StationTogether1": "",
      "StationTogether2": "",
      "LineCode1": "BL",
      "LineCode2": "OR",
      "LineCode3": "SV",
      "LineCode4": null
    },
    {
      "Address": {
        "Zip": "20004",
        "State": "DC",
        "City": "Washington",
        "Street": "1200 Independence Avenue SW"
      },
      "Lon": -77.028232,
      "Lat": 38.888022,
      "Code": "D02",
      "Name": "Smithsonian",
      "StationTogether1": "",
      "StationTogether2": "",
      "LineCode1": "BL",
      "LineCode2": "OR",
      "LineCode3": "SV",
      "LineCode4": null
    },
    {
      "Address": {
        "Zip": "20024",
        "State": "DC",
        "City": "Washington",
        "Street": "600 Maryland Avenue SW"
      },
      "Lon": -77.021964,
      "Lat": 38.884775,
      "Code": "D03",
      "Name": "L'Enfant Plaza",
      "StationTogether1": "F03",
      "StationTogether2": "",
      "LineCode1": "BL",
      "LineCode2": "OR",
      "LineCode3": "SV",
      "LineCode4": null
    },
    {
      "Address": {
        "Zip": "20024",
        "State": "DC",
        "City": "Washington",
        "Street": "401 3rd Street SW"
      },
      "Lon": -77.01586,
      "Lat": 38.884958,
      "Code": "D04",
      "Name": "Federal Center SW",
      "StationTogether1": "",
      "StationTogether2": "",
      "LineCode1": "BL",
      "LineCode2": "OR",
      "LineCode3": "SV",
      "LineCode4": null
    },
    {
      "Address": {
        "Zip": "20003",
        "State": "DC",
        "City": "Washington",
        "Street": "355 First Street SE"
      },
      "Lon": -77.005137,
      "Lat": 38.884968,
      "Code": "D05",
      "Name": "Capitol South",
      "StationTogether1": "",
      "StationTogether2": "",
      "LineCode1": "BL",
      "LineCode2": "OR",
      "LineCode3": "SV",
      "LineCode4": null
    },
    {
      "Address": {
        "Zip": "20003",
        "State": "DC",
        "City": "Washington",
        "Street": "701 Pennsylvania Avenue SE"
      },
      "Lon": -76.995334,
      "Lat": 38.884124,
      "Code": "D06",
      "Name": "Eastern Market",
      "StationTogether1": "",
      "StationTogether2": "",
      "LineCode1": "BL",
      "LineCode2": "OR",
      "LineCode3": "SV",
      "LineCode4": null
    },
    {
      "Address": {
        "Zip": "20003",
        "State": "DC",
        "City": "Washington",
        "Street": "700 14th Street SE"
      },
      "Lon": -76.985721,
      "Lat": 38.880841,
      "Code": "D07",
      "Name": "Potomac Ave",
      "StationTogether1": "",
      "StationTogether2": "",
      "LineCode1": "BL",
      "LineCode2": "OR",
      "LineCode3": "SV",
      "LineCode4": null
    },
    {
      "Address": {
        "Zip": "20003",
        "State": "DC",
        "City": "Washington",
        "Street": "192 19th St. SE"
      },
      "Lon": -76.977485,
      "Lat": 38.88594,
      "Code": "D08",
      "Name": "Stadium-Armory",
      "StationTogether1": "",
      "StationTogether2": "",
      "LineCode1": "BL",
      "LineCode2": "OR",
      "LineCode3": "SV",
      "LineCode4": null
    },
    {
      "Address": {
        "Zip": "20019",
        "State": "DC",
        "City": "Washington",
        "Street": "4000 Minnesota Avenue NE"
      },
      "Lon": -76.948042,
      "Lat": 38.898284,
      "Code": "D09",
      "Name": "Minnesota Ave",
      "StationTogether1": "",
      "StationTogether2": "",
      "LineCode1": "OR",
      "LineCode2": null,
      "LineCode3": null,
      "LineCode4": null
    },
    {
      "Address": {
        "Zip": "20019",
        "State": "DC",
        "City": "Washington",
        "Street": "4720 Minnesota Avenue NE"
      },
      "Lon": -76.936177,
      "Lat": 38.907734,
      "Code": "D10",
      "Name": "Deanwood",
      "StationTogether1": "",
      "StationTogether2": "",
      "LineCode1": "OR",
      "LineCode2": null,
      "LineCode3": null,
      "LineCode4": null
    },
    {
      "Address": {
        "Zip": "20785",
        "State": "MD",
        "City": "Cheverly",
        "Street": "5501 Columbia Park"
      },
      "Lon": -76.915427,
      "Lat": 38.91652,
      "Code": "D11",
      "Name": "Cheverly",
      "StationTogether1": "",
      "StationTogether2": "",
      "LineCode1": "OR",
      "LineCode2": null,
      "LineCode3": null,
      "LineCode4": null
    },
    {
      "Address": {
        "Zip": "20785",
        "State": "MD",
        "City": "Hyattsville",
        "Street": "3000 Pennsy Drive"
      },
      "Lon": -76.890988,
      "Lat": 38.934411,
      "Code": "D12",
      "Name": "Landover",
      "StationTogether1": "",
      "StationTogether2": "",
      "LineCode1": "OR",
      "LineCode2": null,
      "LineCode3": null,
      "LineCode4": null
    },
    {
      "Address": {
        "Zip": "20784",
        "State": "MD",
        "City": "New Carrollton",
        "Street": "4700 Garden City Drive"
      },
      "Lon": -76.872144,
      "Lat": 38.947674,
      "Code": "D13",
      "Name": "New Carrollton",
      "StationTogether1": "",
      "StationTogether2": "",
      "LineCode1": "OR",
      "LineCode2": null,
      "LineCode3": null,
      "LineCode4": null
    },
    {
      "Address": {
        "Zip": "20001",
        "State": "DC",
        "City": "Washington",
        "Street": "700 M St. NW"
      },
      "Lon": -77.022256,
      "Lat": 38.905604,
      "Code": "E01",
      "Name": "Mt Vernon Sq 7th St-Convention Center",
      "StationTogether1": "",
      "StationTogether2": "",
      "LineCode1": "GR",
      "LineCode2": "YL",
      "LineCode3": null,
      "LineCode4": null
    },
    {
      "Address": {
        "Zip": "20001",
        "State": "DC",
        "City": "Washington",
        "Street": "1701 8th St. NW"
      },
      "Lon": -77.022194,
      "Lat": 38.912919,
      "Code": "E02",
      "Name": "Shaw-Howard U",
      "StationTogether1": "",
      "StationTogether2": "",
      "LineCode1": "GR",
      "LineCode2": "YL",
      "LineCode3": null,
      "LineCode4": null
    },
    {
      "Address": {
        "Zip": "20009",
        "State": "DC",
        "City": "Washington",
        "Street": "1240 U Street NW"
      },
      "Lon": -77.028938,
      "Lat": 38.916489,
      "Code": "E03",
      "Name": "U Street/African-Amer Civil War Memorial/Cardozo",
      "StationTogether1": "",
      "StationTogether2": "",
      "LineCode1": "GR",
      "LineCode2": "YL",
      "LineCode3": null,
      "LineCode4": null
    },
    {
      "Address": {
        "Zip": "20009",
        "State": "DC",
        "City": "Washington",
        "Street": "3030 14th St. NW"
      },
      "Lon": -77.032775,
      "Lat": 38.928672,
      "Code": "E04",
      "Name": "Columbia Heights",
      "StationTogether1": "",
      "StationTogether2": "",
      "LineCode1": "GR",
      "LineCode2": "YL",
      "LineCode3": null,
      "LineCode4": null
    },
    {
      "Address": {
        "Zip": "20010",
        "State": "DC",
        "City": "Washington",
        "Street": "3700 Georgia Avenue NW"
      },
      "Lon": -77.024728,
      "Lat": 38.936077,
      "Code": "E05",
      "Name": "Georgia Ave-Petworth",
      "StationTogether1": "",
      "StationTogether2": "",
      "LineCode1": "GR",
      "LineCode2": "YL",
      "LineCode3": null,
      "LineCode4": null
    },
    {
      "Address": {
        "Zip": "20011",
        "State": "DC",
        "City": "Washington",
        "Street": "550 Galloway Street NE"
      },
      "Lon": -77.002174,
      "Lat": 38.951777,
      "Code": "E06",
      "Name": "Fort Totten",
      "StationTogether1": "B06",
      "StationTogether2": "",
      "LineCode1": "GR",
      "LineCode2": "YL",
      "LineCode3": null,
      "LineCode4": null
    },
    {
      "Address": {
        "Zip": "20782",
        "State": "MD",
        "City": "Hyattsville",
        "Street": "2700 Hamilton St."
      },
      "Lon": -76.969881,
      "Lat": 38.954931,
      "Code": "E07",
      "Name": "West Hyattsville",
      "StationTogether1": "",
      "StationTogether2": "",
      "LineCode1": "GR",
      "LineCode2": null,
      "LineCode3": null,
      "LineCode4": null
    },
    {
      "Address": {
        "Zip": "20782",
        "State": "MD",
        "City": "Hyattsville",
        "Street": "3575 East West Highway"
      },
      "Lon": -76.956182,
      "Lat": 38.965276,
      "Code": "E08",
      "Name": "Prince George's Plaza",
      "StationTogether1": "",
      "StationTogether2": "",
      "LineCode1": "GR",
      "LineCode2": null,
      "LineCode3": null,
      "LineCode4": null
    },
    {
      "Address": {
        "Zip": "20740",
        "State": "MD",
        "City": "College Park",
        "Street": "4931 Calvert Road"
      },
      "Lon": -76.928432,
      "Lat": 38.978523,
      "Code": "E09",
      "Name": "College Park-U of MD",
      "StationTogether1": "",
      "StationTogether2": "",
      "LineCode1": "GR",
      "LineCode2": null,
      "LineCode3": null,
      "LineCode4": null
    },
    {
      "Address": {
        "Zip": "20740",
        "State": "MD",
        "City": "Greenbelt",
        "Street": "5717 Greenbelt Metro Drive"
      },
      "Lon": -76.911362,
      "Lat": 39.011036,
      "Code": "E10",
      "Name": "Greenbelt",
      "StationTogether1": "",
      "StationTogether2": "",
      "LineCode1": "GR",
      "LineCode2": null,
      "LineCode3": null,
      "LineCode4": null
    },
    {
      "Address": {
        "Zip": "20001",
        "State": "DC",
        "City": "Washington",
        "Street": "630 H St. NW"
      },
      "Lon": -77.021851,
      "Lat": 38.89834,
      "Code": "F01",
      "Name": "Gallery Pl-Chinatown",
      "StationTogether1": "B01",
      "StationTogether2": "",
      "LineCode1": "GR",
      "LineCode2": "YL",
      "LineCode3": null,
      "LineCode4": null
    },
    {
      "Address": {
        "Zip": "20004",
        "State": "DC",
        "City": "Washington",
        "Street": "701 Pennsylvania Avenue NW"
      },
      "Lon": -77.021902,
      "Lat": 38.893893,
      "Code": "F02",
      "Name": "Archives-Navy Memorial-Penn Quarter",
      "StationTogether1": "",
      "StationTogether2": "",
      "LineCode1": "GR",
      "LineCode2": "YL",
      "LineCode3": null,
      "LineCode4": null
    },
    {
      "Address": {
        "Zip": "20024",
        "State": "DC",
        "City": "Washington",
        "Street": "600 Maryland Avenue SW"
      },
      "Lon": -77.021964,
      "Lat": 38.884775,
      "Code": "F03",
      "Name": "L'Enfant Plaza",
      "StationTogether1": "D03",
      "StationTogether2": "",
      "LineCode1": "GR",
      "LineCode2": "YL",
      "LineCode3": null,
      "LineCode4": null
    },
    {
      "Address": {
        "Zip": "20024",
        "State": "DC",
        "City": "Washington",
        "Street": "399 M Street SW"
      },
      "Lon": -77.017491,
      "Lat": 38.876221,
      "Code": "F04",
      "Name": "Waterfront",
      "StationTogether1": "",
      "StationTogether2": "",
      "LineCode1": "GR",
      "LineCode2": null,
      "LineCode3": null,
      "LineCode4": null
    },
    {
      "Address": {
        "Zip": "20003",
        "State": "DC",
        "City": "Washington",
        "Street": "200 M Street SE"
      },
      "Lon": -77.005086,
      "Lat": 38.876588,
      "Code": "F05",
      "Name": "Navy Yard-Ballpark",
      "StationTogether1": "",
      "StationTogether2": "",
      "LineCode1": "GR",
      "LineCode2": null,
      "LineCode3": null,
      "LineCode4": null
    },
    {
      "Address": {
        "Zip": "20020",
        "State": "DC",
        "City": "Washington",
        "Street": "1101 Howard Road SE"
      },
      "Lon": -76.995648,
      "Lat": 38.862072,
      "Code": "F06",
      "Name": "Anacostia",
      "StationTogether1": "",
      "StationTogether2": "",
      "LineCode1": "GR",
      "LineCode2": null,
      "LineCode3": null,
      "LineCode4": null
    },
    {
      "Address": {
        "Zip": "20020",
        "State": "DC",
        "City": "Washington",
        "Street": "1290 Alabama Avenue SE"
      },
      "Lon": -76.98817,
      "Lat": 38.845334,
      "Code": "F07",
      "Name": "Congress Heights",
      "StationTogether1": "",
      "StationTogether2": "",
      "LineCode1": "GR",
      "LineCode2": null,
      "LineCode3": null,
      "LineCode4": null
    },
    {
      "Address": {
        "Zip": "20748",
        "State": "MD",
        "City": "Temple Hills",
        "Street": "1411 Southern Avenue"
      },
      "Lon": -76.97536,
      "Lat": 38.840974,
      "Code": "F08",
      "Name": "Southern Avenue",
      "StationTogether1": "",
      "StationTogether2": "",
      "LineCode1": "GR",
      "LineCode2": null,
      "LineCode3": null,
      "LineCode4": null
    },
    {
      "Address": {
        "Zip": "20748",
        "State": "MD",
        "City": "Temple Hills",
        "Street": "3101 Branch Avenue"
      },
      "Lon": -76.956565,
      "Lat": 38.851187,
      "Code": "F09",
      "Name": "Naylor Road",
      "StationTogether1": "",
      "StationTogether2": "",
      "LineCode1": "GR",
      "LineCode2": null,
      "LineCode3": null,
      "LineCode4": null
    },
    {
      "Address": {
        "Zip": "20746",
        "State": "MD",
        "City": "Suitland",
        "Street": "4500 Silver Hill Road"
      },
      "Lon": -76.932022,
      "Lat": 38.843891,
      "Code": "F10",
      "Name": "Suitland",
      "StationTogether1": "",
      "StationTogether2": "",
      "LineCode1": "GR",
      "LineCode2": null,
      "LineCode3": null,
      "LineCode4": null
    },
    {
      "Address": {
        "Zip": "20746",
        "State": "MD",
        "City": "Suitland",
        "Street": "4704 Old Soper Road"
      },
      "Lon": -76.912134,
      "Lat": 38.826995,
      "Code": "F11",
      "Name": "Branch Ave",
      "StationTogether1": "",
      "StationTogether2": "",
      "LineCode1": "GR",
      "LineCode2": null,
      "LineCode3": null,
      "LineCode4": null
    },
    {
      "Address": {
        "Zip": "20019",
        "State": "DC",
        "City": "Washington",
        "Street": "4500 Benning Road"
      },
      "Lon": -76.938291,
      "Lat": 38.890488,
      "Code": "G01",
      "Name": "Benning Road",
      "StationTogether1": "",
      "StationTogether2": "",
      "LineCode1": "BL",
      "LineCode2": "SV",
      "LineCode3": null,
      "LineCode4": null
    },
    {
      "Address": {
        "Zip": "20743",
        "State": "MD",
        "City": "Capitol Heights",
        "Street": "133 Central Avenue"
      },
      "Lon": -76.913382,
      "Lat": 38.889757,
      "Code": "G02",
      "Name": "Capitol Heights",
      "StationTogether1": "",
      "StationTogether2": "",
      "LineCode1": "BL",
      "LineCode2": "SV",
      "LineCode3": null,
      "LineCode4": null
    },
    {
      "Address": {
        "Zip": "20743",
        "State": "MD",
        "City": "Capitol Heights",
        "Street": "100 Addison Road S."
      },
      "Lon": -76.893592,
      "Lat": 38.886713,
      "Code": "G03",
      "Name": "Addison Road-Seat Pleasant",
      "StationTogether1": "",
      "StationTogether2": "",
      "LineCode1": "BL",
      "LineCode2": "SV",
      "LineCode3": null,
      "LineCode4": null
    },
    {
      "Address": {
        "Zip": "20785",
        "State": "MD",
        "City": "Landover",
        "Street": "300 Garrett Morgan Blvd."
      },
      "Lon": -76.8682,
      "Lat": 38.8913,
      "Code": "G04",
      "Name": "Morgan Boulevard",
      "StationTogether1": "",
      "StationTogether2": "",
      "LineCode1": "BL",
      "LineCode2": "SV",
      "LineCode3": null,
      "LineCode4": null
    },
    {
      "Address": {
        "Zip": "20774",
        "State": "MD",
        "City": "Largo",
        "Street": "Largo Town Center 9000 Lottsford Road"
      },
      "Lon": -76.8449,
      "Lat": 38.9008,
      "Code": "G05",
      "Name": "Largo Town Center",
      "StationTogether1": "",
      "StationTogether2": "",
      "LineCode1": "BL",
      "LineCode2": "SV",
      "LineCode3": null,
      "LineCode4": null
    },
    {
      "Address": {
        "Zip": "22310",
        "State": "VA",
        "City": "Alexandria",
        "Street": "5690 Eisenhower Avenue"
      },
      "Lon": -77.129407,
      "Lat": 38.799193,
      "Code": "J02",
      "Name": "Van Dorn Street",
      "StationTogether1": "",
      "StationTogether2": "",
      "LineCode1": "BL",
      "LineCode2": null,
      "LineCode3": null,
      "LineCode4": null
    },
    {
      "Address": {
        "Zip": "22150",
        "State": "VA",
        "City": "Springfield",
        "Street": "6880 Frontier Drive"
      },
      "Lon": -77.168797,
      "Lat": 38.766129,
      "Code": "J03",
      "Name": "Franconia-Springfield",
      "StationTogether1": "",
      "StationTogether2": "",
      "LineCode1": "BL",
      "LineCode2": null,
      "LineCode3": null,
      "LineCode4": null
    },
    {
      "Address": {
        "Zip": "22201",
        "State": "VA",
        "City": "Arlington",
        "Street": "2100 Wilson Blvd"
      },
      "Lon": -77.08391,
      "Lat": 38.891499,
      "Code": "K01",
      "Name": "Court House",
      "StationTogether1": "",
      "StationTogether2": "",
      "LineCode1": "OR",
      "LineCode2": "SV",
      "LineCode3": null,
      "LineCode4": null
    },
    {
      "Address": {
        "Zip": "22201",
        "State": "VA",
        "City": "Arlington",
        "Street": "3100 Wilson Blvd"
      },
      "Lon": -77.096963,
      "Lat": 38.886373,
      "Code": "K02",
      "Name": "Clarendon",
      "StationTogether1": "",
      "StationTogether2": "",
      "LineCode1": "OR",
      "LineCode2": "SV",
      "LineCode3": null,
      "LineCode4": null
    },
    {
      "Address": {
        "Zip": "22201",
        "State": "VA",
        "City": "Arlington",
        "Street": "3600 Fairfax Drive"
      },
      "Lon": -77.104267,
      "Lat": 38.88331,
      "Code": "K03",
      "Name": "Virginia Square-GMU",
      "StationTogether1": "",
      "StationTogether2": "",
      "LineCode1": "OR",
      "LineCode2": "SV",
      "LineCode3": null,
      "LineCode4": null
    },
    {
      "Address": {
        "Zip": "22201",
        "State": "VA",
        "City": "Arlington",
        "Street": "4230 Fairfax Drive"
      },
      "Lon": -77.111845,
      "Lat": 38.882071,
      "Code": "K04",
      "Name": "Ballston-MU",
      "StationTogether1": "",
      "StationTogether2": "",
      "LineCode1": "OR",
      "LineCode2": "SV",
      "LineCode3": null,
      "LineCode4": null
    },
    {
      "Address": {
        "Zip": "22205",
        "State": "VA",
        "City": "Arlington",
        "Street": "2001 N. Sycamore St."
      },
      "Lon": -77.157177,
      "Lat": 38.885841,
      "Code": "K05",
      "Name": "East Falls Church",
      "StationTogether1": "",
      "StationTogether2": "",
      "LineCode1": "OR",
      "LineCode2": "SV",
      "LineCode3": null,
      "LineCode4": null
    },
    {
      "Address": {
        "Zip": "22043",
        "State": "VA",
        "City": "Falls Church",
        "Street": "7040 Haycock Road"
      },
      "Lon": -77.189394,
      "Lat": 38.90067,
      "Code": "K06",
      "Name": "West Falls Church-VT/UVA",
      "StationTogether1": "",
      "StationTogether2": "",
      "LineCode1": "OR",
      "LineCode2": null,
      "LineCode3": null,
      "LineCode4": null
    },
    {
      "Address": {
        "Zip": "22180",
        "State": "VA",
        "City": "Vienna",
        "Street": "2700 Gallows Road"
      },
      "Lon": -77.228939,
      "Lat": 38.883015,
      "Code": "K07",
      "Name": "Dunn Loring-Merrifield",
      "StationTogether1": "",
      "StationTogether2": "",
      "LineCode1": "OR",
      "LineCode2": null,
      "LineCode3": null,
      "LineCode4": null
    },
    {
      "Address": {
        "Zip": "22031",
        "State": "VA",
        "City": "Fairfax",
        "Street": "9550 Saintsbury Drive"
      },
      "Lon": -77.271562,
      "Lat": 38.877693,
      "Code": "K08",
      "Name": "Vienna/Fairfax-GMU",
      "StationTogether1": "",
      "StationTogether2": "",
      "LineCode1": "OR",
      "LineCode2": null,
      "LineCode3": null,
      "LineCode4": null
    },
    {
      "Address": {
        "Zip": "22102",
        "State": "VA",
        "City": "McLean",
        "Street": "1824 Dolley Madison Boulevard"
      },
      "Lon": -77.210167,
      "Lat": 38.924478,
      "Code": "N01",
      "Name": "McLean",
      "StationTogether1": "",
      "StationTogether2": "",
      "LineCode1": "SV",
      "LineCode2": null,
      "LineCode3": null,
      "LineCode4": null
    },
    {
      "Address": {
        "Zip": "22102",
        "State": "VA",
        "City": "McLean",
        "Street": "1943 Chain Bridge Road"
      },
      "Lon": -77.223314,
      "Lat": 38.920056,
      "Code": "N02",
      "Name": "Tysons Corner",
      "StationTogether1": "",
      "StationTogether2": "",
      "LineCode1": "SV",
      "LineCode2": null,
      "LineCode3": null,
      "LineCode4": null
    },
    {
      "Address": {
        "Zip": "22182",
        "State": "VA",
        "City": "Vienna",
        "Street": "8305 Leesburg Pike"
      },
      "Lon": -77.235192,
      "Lat": 38.919749,
      "Code": "N03",
      "Name": "Greensboro",
      "StationTogether1": "",
      "StationTogether2": "",
      "LineCode1": "SV",
      "LineCode2": null,
      "LineCode3": null,
      "LineCode4": null
    },
    {
      "Address": {
        "Zip": "22182",
        "State": "VA",
        "City": "Vienna",
        "Street": "1576 Spring Hill Road"
      },
      "Lon": -77.24178,
      "Lat": 38.92902,
      "Code": "N04",
      "Name": "Spring Hill",
      "StationTogether1": "",
      "StationTogether2": "",
      "LineCode1": "SV",
      "LineCode2": null,
      "LineCode3": null,
      "LineCode4": null
    },
    {
      "Address": {
        "Zip": "20190",
        "State": "VA",
        "City": "Reston",
        "Street": "1862 Wiehle Avenue"
      },
      "Lon": -77.340179,
      "Lat": 38.947753,
      "Code": "N06",
      "Name": "Wiehle-Reston East",
      "StationTogether1": "",
      "StationTogether2": "",
      "LineCode1": "SV",
      "LineCode2": null,
      "LineCode3": null,
      "LineCode4": null
    }
  ]
}
